{
   "type": "FeatureCollection",
   "features": [
  {
    "type": "Feature",
    "geometry": {
       "type": "Point",
       "coordinates":  [ -88.743,42.2808 ]
    },
    "properties": {
    "University":"University of Michigan",
    "City":"Ann Arbor",
    "2012":43426,
    "2013":43710,
    "yr3":43625,
    "yr4":43651,
    "yr5":44718,
    "yr6":46002,
    "yr7":46716
    }
  },
  {
    "type": "Feature",
    "geometry": {
       "type": "Point",
       "coordinates":  [ -87.6877,42.0451 ]
    },
    "properties": {
    "University":"Northwestern University",
    "City":"Evanston",
    "2012":17052,
    "2013":20997,
    "yr3":20336,
    "yr4":20955,
    "yr5":21208,
    "yr6":21421,
    "yr7":21591
    }
  },
  {
    "type": "Feature",
    "geometry": {
       "type": "Point",
       "coordinates":  [ -89.4012,43.0731 ]
    },
    "properties": {
    "University":"University of Wisconsin-Madison",
    "City":"Madison",
    "2012":42454,
    "2013":42820,
    "yr3":43275,
    "yr4":43389,
    "yr5":43336,
    "yr6":44411,
    "yr7":45317
    }
  },
  {
    "type": "Feature",
    "geometry": {
       "type": "Point",
       "coordinates":  [ -88.2434,40.1164 ]
    },
    "properties": {
    "University":"University of Illinois",
    "City":"Urbana-Champaign",
    "2012":42883,
    "2013":43398,
    "yr3":43603,
    "yr4":44087,
    "yr5":47826,
    "yr6":49339,
    "yr7":51196
    }
  },
  {
    "type": "Feature",
    "geometry": {
       "type": "Point",
       "coordinates":  [ -76.9378,39.9897 ]
    },
    "properties": {
    "University":"Penn State University",
    "City":"University Park",
    "2012":45351,
    "2013":46184,
    "yr3":46606,
    "yr4":46848,
    "yr5":47261,
    "yr6":46610,
    "yr7":46270
    }
  },
  {
    "type": "Feature",
    "geometry": {
       "type": "Point",
       "coordinates":  [ -82.9988,39.9612 ]
    },
    "properties": {
    "University":"Ohio State University",
    "City":"Columbus",
    "2012":56387,
    "2013":57466,
    "yr3":58322,
    "yr4":58663,
    "yr5":59482,
    "yr6":59837,
    "yr7":61170
    }
  },
  {
    "type": "Feature",
    "geometry": {
       "type": "Point",
       "coordinates":  [ -83.3839,42.737 ]
    },
    "properties": {
    "University":"Michigan State University",
    "City":"East Lansing",
    "2012":48906,
    "2013":49343,
    "yr3":50085,
    "yr4":50543,
    "yr5":50344,
    "yr6":50019,
    "yr7":50351
    }
  },
  {
    "type": "Feature",
    "geometry": {
       "type": "Point",
       "coordinates":  [ -96.7026,40.8136 ]
    },
    "properties": {
    "University":"University of Nebraska",
    "City":"Lincoln",
    "2012":24593,
    "2013":24445,
    "yr3":25006,
    "yr4":25260,
    "yr5":25897,
    "yr6":26079,
    "yr7":25820
    }
  },
  {
    "type": "Feature",
    "geometry": {
       "type": "Point",
       "coordinates":  [ -91.5302,41.6611 ]
    },
    "properties": {
    "University":"University of Iowa",
    "City":"Iowa City",
    "2012":30893,
    "2013":31498,
    "yr3":31065,
    "yr4":31387,
    "yr5":32150,
    "yr6":33334,
    "yr7":33564
    }
  },
  {
    "type": "Feature",
    "geometry": {
       "type": "Point",
       "coordinates":  [ -74.4518,40.4862 ]
    },
    "properties": {
    "University":"Rutgers University",
    "City":"New Brunswick",
    "2012":48250,
    "2013":48378,
    "yr3":40720,
    "yr4":41669,
    "yr5":42314,
    "yr6":42808,
    "yr7":43354
    }
  },
  {
    "type": "Feature",
    "geometry": {
       "type": "Point",
       "coordinates":  [ -76.9378,38.9897 ]
    },
    "properties": {
    "University":"University of Maryland",
    "City":"College Park",
    "2012":37247,
    "2013":37272,
    "yr3":37610,
    "yr4":38140,
    "yr5":39083,
    "yr6":40521,
    "yr7":41200
    }
  },
  {
    "type": "Feature",
    "geometry": {
       "type": "Point",
       "coordinates":  [ -93.201,44.9375 ]
    },
    "properties": {
    "University":"University of Minnesota",
    "City":"Minneapolis",
    "2012":43802,
    "2013":43646,
    "yr3":43413,
    "yr4":43457,
    "yr5":43951,
    "yr6":44544,
    "yr7":44405
    }
  },
  {
    "type": "Feature",
    "geometry": {
       "type": "Point",
       "coordinates":  [ -86.9081,40.4259 ]
    },
    "properties": {
    "University":"Purdue University",
    "City":"West Lafayette",
    "2012":38310,
    "2013":37847,
    "yr3":37823,
    "yr4":29497,
    "yr5":29497,
    "yr6":30043,
    "yr7":32224
    }
  },
  {
    "type": "Feature",
    "geometry": {
       "type": "Point",
       "coordinates":  [ -86.5264,39.1653 ]
    },
    "properties": {
    "University":"Indiana University - Bloomington",
    "City":"Bloomington",
    "2012":42133,
    "2013":46817,
    "yr3":46416,
    "yr4":43171,
    "yr5":43748,
    "yr6":43710,
    "yr7":43503
    }
  },
  {
    "type": "Feature",
    "geometry": {
       "type": "Point",
       "coordinates":  [ -86.2379,41.7002 ]
    },
    "properties": {
    "University":"University of Notre Dame",
    "City":"Notre Dame",
    "2012":12126,
    "2013":12124,
    "yr3":12179,
    "yr4":12292,
    "yr5":12393,
    "yr6":12467,
    "yr7":12607
    }
  }
]
}